[
  {
    "id": "tc_001",
    "name": "Bright Futures Therapy Center",
    "specializations": ["ASD", "ADHD"],
    "address": "123 Jalan Ampang",
    "city": "Kuala Lumpur",
    "state": "Wilayah Persekutuan",
    "postcode": "50450",
    "phone": "+60-3-2161-1234",
    "email": "info@brightfutures.my",
    "website": "https://brightfutures.my",
    "whatsapp": "+60123456789",
    "hours": "Mon-Fri: 9:00 AM - 6:00 PM, Sat: 9:00 AM - 1:00 PM",
    "services": ["Behavioral therapy", "Speech therapy", "Occupational therapy"],
    "coordinates": { "lat": 3.1570, "lng": 101.7123 }
  },
  {
    "id": "tc_002",
    "name": "Learning Tree Development Center",
    "specializations": ["Dyslexia", "ADHD"],
    "address": "456 Jalan Tun Razak",
    "city": "Kuala Lumpur",
    "state": "Wilayah Persekutuan",
    "postcode": "50400",
    "phone": "+60-3-2162-5678",
    "email": "contact@learningtree.my",
    "website": "https://learningtree.my",
    "whatsapp": "+60123456790",
    "hours": "Mon-Fri: 8:30 AM - 5:30 PM",
    "services": ["Reading intervention", "Educational therapy", "Assessment"],
    "coordinates": { "lat": 3.1590, "lng": 101.7200 }
  },
  {
    "id": "tc_003",
    "name": "Spectrum Care Clinic",
    "specializations": ["ASD"],
    "address": "789 Jalan Damansara",
    "city": "Petaling Jaya",
    "state": "Selangor",
    "postcode": "47301",
    "phone": "+60-3-7956-1234",
    "email": "hello@spectrumcare.my",
    "website": "https://spectrumcare.my",
    "whatsapp": "+60123456791",
    "hours": "Mon-Sat: 9:00 AM - 7:00 PM",
    "services": ["ABA therapy", "Social skills training", "Parent coaching"],
    "coordinates": { "lat": 3.0738, "lng": 101.6006 }
  },
  {
    "id": "tc_004",
    "name": "Mind Matters Therapy",
    "specializations": ["ADHD", "ASD"],
    "address": "321 Jalan Dato Keramat",
    "city": "Kuala Lumpur",
    "state": "Wilayah Persekutuan",
    "postcode": "54000",
    "phone": "+60-3-4141-9999",
    "email": "info@mindmatters.my",
    "website": "https://mindmatters.my",
    "whatsapp": "+60123456792",
    "hours": "Mon-Fri: 10:00 AM - 7:00 PM, Sat: 10:00 AM - 2:00 PM",
    "services": ["Cognitive behavioral therapy", "Play therapy", "Family counseling"],
    "coordinates": { "lat": 3.1743, "lng": 101.7380 }
  },
  {
    "id": "tc_005",
    "name": "Little Steps Child Development",
    "specializations": ["ASD", "ADHD", "Dyslexia"],
    "address": "555 Persiaran Raja Chulan",
    "city": "Kuala Lumpur",
    "state": "Wilayah Persekutuan",
    "postcode": "50200",
    "phone": "+60-3-2031-2345",
    "email": "support@littlesteps.my",
    "website": "https://littlesteps.my",
    "whatsapp": "+60123456793",
    "hours": "Mon-Fri: 9:00 AM - 6:00 PM",
    "services": ["Comprehensive assessment", "Multi-disciplinary therapy", "School liaison"],
    "coordinates": { "lat": 3.1478, "lng": 101.7063 }
  },
  {
    "id": "tc_006",
    "name": "Penang Child Development Center",
    "specializations": ["ASD", "Dyslexia"],
    "address": "12 Jalan Burmah",
    "city": "George Town",
    "state": "Penang",
    "postcode": "10350",
    "phone": "+60-4-226-7890",
    "email": "info@pcdc.my",
    "website": "https://pcdc.my",
    "whatsapp": "+60124567890",
    "hours": "Mon-Fri: 8:00 AM - 5:00 PM, Sat: 8:00 AM - 12:00 PM",
    "services": ["Developmental screening", "Speech therapy", "Occupational therapy"],
    "coordinates": { "lat": 5.4164, "lng": 100.3327 }
  },
  {
    "id": "tc_007",
    "name": "Johor Bahru Learning Centre",
    "specializations": ["ADHD", "Dyslexia"],
    "address": "88 Jalan Trus",
    "city": "Johor Bahru",
    "state": "Johor",
    "postcode": "80000",
    "phone": "+60-7-223-4567",
    "email": "admin@jblc.my",
    "website": "https://jblc.my",
    "whatsapp": "+60127890123",
    "hours": "Mon-Fri: 9:00 AM - 6:00 PM, Sat: 9:00 AM - 1:00 PM",
    "services": ["Remedial education", "Attention training", "Study skills coaching"],
    "coordinates": { "lat": 1.4655, "lng": 103.7578 }
  },
  {
    "id": "tc_008",
    "name": "Ipoh Developmental Services",
    "specializations": ["ASD", "ADHD"],
    "address": "234 Jalan Sultan Idris Shah",
    "city": "Ipoh",
    "state": "Perak",
    "postcode": "30000",
    "phone": "+60-5-254-8901",
    "email": "contact@ids.my",
    "website": "https://ids.my",
    "whatsapp": "+60128901234",
    "hours": "Mon-Fri: 9:00 AM - 5:00 PM",
    "services": ["Behavioral intervention", "Parent training", "Social groups"],
    "coordinates": { "lat": 4.5975, "lng": 101.0901 }
  },
  {
    "id": "tc_009",
    "name": "Melaka Reading Clinic",
    "specializations": ["Dyslexia"],
    "address": "77 Jalan Hang Jebat",
    "city": "Melaka",
    "state": "Melaka",
    "postcode": "75200",
    "phone": "+60-6-282-3456",
    "email": "info@melakareading.my",
    "website": "https://melakareading.my",
    "whatsapp": "+60129012345",
    "hours": "Tue-Sat: 10:00 AM - 6:00 PM",
    "services": ["Dyslexia assessment", "Orton-Gillingham method", "Reading intervention"],
    "coordinates": { "lat": 2.1896, "lng": 102.2501 }
  },
  {
    "id": "tc_010",
    "name": "Kota Kinabalu Child Therapy",
    "specializations": ["ASD", "ADHD", "Dyslexia"],
    "address": "99 Jalan Gaya",
    "city": "Kota Kinabalu",
    "state": "Sabah",
    "postcode": "88000",
    "phone": "+60-88-232-7890",
    "email": "info@kkct.my",
    "website": "https://kkct.my",
    "whatsapp": "+60130123456",
    "hours": "Mon-Fri: 8:30 AM - 5:30 PM, Sat: 8:30 AM - 12:30 PM",
    "services": ["Multi-sensory learning", "Behavioral support", "Educational assessment"],
    "coordinates": { "lat": 5.9804, "lng": 116.0735 }
  },
  {
    "id": "tc_011",
    "name": "Kuching Autism Resource Center",
    "specializations": ["ASD"],
    "address": "45 Jalan Padungan",
    "city": "Kuching",
    "state": "Sarawak",
    "postcode": "93100",
    "phone": "+60-82-245-6789",
    "email": "karc@autism.my",
    "website": "https://kuchingautism.my",
    "whatsapp": "+60131234567",
    "hours": "Mon-Fri: 9:00 AM - 6:00 PM",
    "services": ["Early intervention", "Social skills groups", "Sensory integration"],
    "coordinates": { "lat": 1.5535, "lng": 110.3448 }
  },
  {
    "id": "tc_012",
    "name": "Shah Alam Family Therapy Center",
    "specializations": ["ADHD", "ASD"],
    "address": "18 Persiaran Perbandaran",
    "city": "Shah Alam",
    "state": "Selangor",
    "postcode": "40000",
    "phone": "+60-3-5510-2345",
    "email": "info@safamilytherapy.my",
    "website": "https://safamilytherapy.my",
    "whatsapp": "+60132345678",
    "hours": "Mon-Fri: 10:00 AM - 7:00 PM, Sat-Sun: 10:00 AM - 3:00 PM",
    "services": ["Family therapy", "Medication management", "School consultation"],
    "coordinates": { "lat": 3.0738, "lng": 101.5183 }
  },
  {
    "id": "tc_013",
    "name": "Seremban Learning Support",
    "specializations": ["Dyslexia", "ADHD"],
    "address": "66 Jalan Tuanku Munawir",
    "city": "Seremban",
    "state": "Negeri Sembilan",
    "postcode": "70000",
    "phone": "+60-6-762-8901",
    "email": "support@sls.my",
    "website": "https://sls.my",
    "whatsapp": "+60133456789",
    "hours": "Mon-Fri: 2:00 PM - 8:00 PM, Sat: 9:00 AM - 4:00 PM",
    "services": ["After-school tutoring", "Learning strategies", "Exam preparation"],
    "coordinates": { "lat": 2.7297, "lng": 101.9381 }
  },
  {
    "id": "tc_014",
    "name": "Alor Setar Child Development Hub",
    "specializations": ["ASD", "ADHD"],
    "address": "33 Jalan Langgar",
    "city": "Alor Setar",
    "state": "Kedah",
    "postcode": "05100",
    "phone": "+60-4-733-4567",
    "email": "hub@ascdh.my",
    "website": "https://ascdh.my",
    "whatsapp": "+60134567890",
    "hours": "Mon-Fri: 9:00 AM - 5:00 PM",
    "services": ["Developmental assessment", "Speech therapy", "Parent workshops"],
    "coordinates": { "lat": 6.1248, "lng": 100.3678 }
  },
  {
    "id": "tc_015",
    "name": "Putrajaya Special Needs Center",
    "specializations": ["ASD", "ADHD", "Dyslexia"],
    "address": "Lot 5, Presint 8",
    "city": "Putrajaya",
    "state": "Wilayah Persekutuan",
    "postcode": "62250",
    "phone": "+60-3-8889-1234",
    "email": "info@pjsnc.my",
    "website": "https://pjsnc.my",
    "whatsapp": "+60135678901",
    "hours": "Mon-Sat: 8:00 AM - 6:00 PM",
    "services": ["Comprehensive therapy", "Educational support", "Transition planning"],
    "coordinates": { "lat": 2.9264, "lng": 101.6964 }
  }
]
